{"summary": {"query": "school", "queryType": "NON_NEAR", "queryTime": 76, "numResults": 20, "offset": 0, "totalResults": 100, "fuzzyLevel": 1, "geoBias": {"lat": 38.646770000000004, "lon": -121.59375}}, "results": [{"type": "POI", "id": "ENfKgTF37F3BCF_eUjCXiQ", "score": 0.9659320116, "dist": 7047.771894, "info": "search:ta:840067000471289-US", "matchConfidence": {"score": 1}, "poi": {"name": "Leroy Greene Academy", "phone": "+1 916-567-5560", "categorySet": [{"id": 7372002}], "url": "www.leroygreene.com", "categories": ["school"], "classifications": [{"code": "SCHOOL", "names": [{"nameLocale": "en-US", "name": "school"}]}]}, "address": {"streetNumber": "2950", "streetName": "West River Drive", "municipality": "Sacramento", "neighbourhood": "Willowcreek", "countrySecondarySubdivision": "Sacramento", "countrySubdivision": "CA", "countrySubdivisionName": "California", "countrySubdivisionCode": "CA", "postalCode": "95833", "extendedPostalCode": "95833-3767", "countryCode": "US", "country": "United States", "countryCodeISO3": "USA", "freeformAddress": "2950 West River Drive, Sacramento, CA 95833", "localName": "Sacramento"}, "position": {"lat": 38.610463, "lon": -121.527247}, "viewport": {"topLeftPoint": {"lat": 38.6114, "lon": -121.53003}, "btmRightPoint": {"lat": 38.60943, "lon": -121.52429}}, "entryPoints": [{"type": "main", "position": {"lat": 38.61138, "lon": -121.52726}}], "dataSources": {"geometry": {"id": "00005543-3400-3c00-0000-000059f2bc3a"}}}, {"type": "POI", "id": "PljkJQaIng0077Jeidu3Ng", "score": 0.9470806122, "dist": 4165.23621, "info": "search:ta:840067000008868-US", "matchConfidence": {"score": 1}, "poi": {"name": "Natomas Pacific Pathways Prep School-Middle", "phone": "+1 916-567-5740", "categorySet": [{"id": 7372002}], "url": "www.natomasunified.org", "categories": ["school"], "classifications": [{"code": "SCHOOL", "names": [{"nameLocale": "en-US", "name": "school"}]}]}, "address": {"streetNumber": "3700", "streetName": "Del Paso Road", "municipality": "Sacramento", "neighbourhood": "Sundance Lake", "countrySecondarySubdivision": "Sacramento", "countrySubdivision": "CA", "countrySubdivisionName": "California", "countrySubdivisionCode": "CA", "postalCode": "95834", "extendedPostalCode": "95834-9606", "countryCode": "US", "country": "United States", "countryCodeISO3": "USA", "freeformAddress": "3700 Del Paso Road, Sacramento, CA 95834", "localName": "Sacramento"}, "position": {"lat": 38.654607, "lon": -121.546847}, "viewport": {"topLeftPoint": {"lat": 38.65563, "lon": -121.54815}, "btmRightPoint": {"lat": 38.65359, "lon": -121.54554}}, "entryPoints": [{"type": "main", "position": {"lat": 38.65561, "lon": -121.5466}}]}, {"type": "POI", "id": "phr_S2GF7XzWmLN-mr34-Q", "score": 0.9411206841, "dist": 5735.453223, "info": "search:ta:840067000013649-US", "matchConfidence": {"score": 1}, "poi": {"name": "Natomas Middle School", "phone": "+1 916-567-5540", "categorySet": [{"id": 7372002}], "url": "www.natomasunified.org", "categories": ["school"], "classifications": [{"code": "SCHOOL", "names": [{"nameLocale": "en-US", "name": "school"}]}]}, "address": {"streetNumber": "3200", "streetName": "North Park Drive", "municipality": "Sacramento", "neighbourhood": "Creekside", "countrySecondarySubdivision": "Sacramento", "countrySubdivision": "CA", "countrySubdivisionName": "California", "countrySubdivisionCode": "CA", "postalCode": "95835", "countryCode": "US", "country": "United States", "countryCodeISO3": "USA", "freeformAddress": "3200 North Park Drive, Sacramento, CA 95835", "localName": "Sacramento"}, "position": {"lat": 38.666473, "lon": -121.532707}, "viewport": {"topLeftPoint": {"lat": 38.66737, "lon": -121.53386}, "btmRightPoint": {"lat": 38.66557, "lon": -121.53156}}, "entryPoints": [{"type": "main", "position": {"lat": 38.66564, "lon": -121.53186}}]}, {"type": "POI", "id": "UfK2ttJ7zAbekI_5pdIiCw", "score": 0.9393801689, "dist": 5735.453223, "info": "search:ta:840067000014259-US", "matchConfidence": {"score": 1}, "poi": {"name": "H Allen Hight Elementary School", "phone": "+1 916-567-5700", "categorySet": [{"id": 7372002}], "url": "www.natomasunified.org", "categories": ["school"], "classifications": [{"code": "SCHOOL", "names": [{"nameLocale": "en-US", "name": "school"}]}]}, "address": {"streetNumber": "3200", "streetName": "North Park Drive", "municipality": "Sacramento", "neighbourhood": "Creekside", "countrySecondarySubdivision": "Sacramento", "countrySubdivision": "CA", "countrySubdivisionName": "California", "countrySubdivisionCode": "CA", "postalCode": "95835", "countryCode": "US", "country": "United States", "countryCodeISO3": "USA", "freeformAddress": "3200 North Park Drive, Sacramento, CA 95835", "localName": "Sacramento"}, "position": {"lat": 38.666473, "lon": -121.532707}, "viewport": {"topLeftPoint": {"lat": 38.66737, "lon": -121.53386}, "btmRightPoint": {"lat": 38.66557, "lon": -121.53156}}, "entryPoints": [{"type": "main", "position": {"lat": 38.66564, "lon": -121.53186}}]}, {"type": "POI", "id": "OHfxXcGVPULXFY6WycSZjQ", "score": 0.9387765527, "dist": 7520.520955, "info": "search:ta:840067000008422-US", "matchConfidence": {"score": 1}, "poi": {"name": "Heron K-8 School", "phone": "+1 916-567-5680", "categorySet": [{"id": 7372002}], "url": "natomas.k12.ca.us", "categories": ["school"], "classifications": [{"code": "SCHOOL", "names": [{"nameLocale": "en-US", "name": "school"}]}]}, "address": {"streetNumber": "5151", "streetName": "Banfield Drive", "municipality": "Sacramento", "neighbourhood": "Natomas Park", "countrySecondarySubdivision": "Sacramento", "countrySubdivision": "CA", "countrySubdivisionName": "California", "countrySubdivisionCode": "CA", "postalCode": "95835", "extendedPostalCode": "95835-1421", "countryCode": "US", "country": "United States", "countryCodeISO3": "USA", "freeformAddress": "5151 Banfield Drive, Sacramento, CA 95835", "localName": "Sacramento"}, "position": {"lat": 38.667728, "lon": -121.511403}, "viewport": {"topLeftPoint": {"lat": 38.66916, "lon": -121.51324}, "btmRightPoint": {"lat": 38.66629, "lon": -121.50957}}, "entryPoints": [{"type": "main", "position": {"lat": 38.66906, "lon": -121.51072}}]}, {"type": "POI", "id": "mf66S5akv4jgPSfQ3LteAg", "score": 0.936576426, "dist": 6261.64592, "info": "search:ta:840067000471286-US", "matchConfidence": {"score": 1}, "poi": {"name": "Maryhill School", "phone": "+1 916-575-9603", "categorySet": [{"id": 7372002}], "url": "www.merryhillschool.com/preschools/sacramento/natomas", "categories": ["school"], "classifications": [{"code": "SCHOOL", "names": [{"nameLocale": "en-US", "name": "school"}]}]}, "address": {"streetNumber": "2855", "streetName": "Karitsa Avenue", "municipality": "Sacramento", "neighbourhood": "Gateway West", "countrySecondarySubdivision": "Sacramento", "countrySubdivision": "CA", "countrySubdivisionName": "California", "countrySubdivisionCode": "CA", "postalCode": "95833", "extendedPostalCode": "95833-4443", "countryCode": "US", "country": "United States", "countryCodeISO3": "USA", "freeformAddress": "2855 Karitsa Avenue, Sacramento, CA 95833", "localName": "Sacramento"}, "position": {"lat": 38.627192, "lon": -121.526156}, "viewport": {"topLeftPoint": {"lat": 38.62809, "lon": -121.52731}, "btmRightPoint": {"lat": 38.62629, "lon": -121.525}}, "entryPoints": [{"type": "main", "position": {"lat": 38.62664, "lon": -121.52617}}]}, {"type": "POI", "id": "SSHg3Au90LParXOBBtfWhg", "score": 0.9355264306, "dist": 6807.29983, "info": "search:ta:840067000471287-US", "matchConfidence": {"score": 1}, "poi": {"name": "Fortune School of Education", "phone": "+1 916-924-8633", "categorySet": [{"id": 7372002}], "url": "www.fortuneschool.us", "categories": ["school"], "classifications": [{"code": "SCHOOL", "names": [{"nameLocale": "en-US", "name": "school"}]}]}, "address": {"streetNumber": "2890", "streetName": "Gateway Oaks Drive", "municipality": "Sacramento", "neighbourhood": "Metro Center", "countrySecondarySubdivision": "Sacramento", "countrySubdivision": "CA", "countrySubdivisionName": "California", "countrySubdivisionCode": "CA", "postalCode": "95833", "extendedPostalCode": "95833-4325", "countryCode": "US", "country": "United States", "countryCodeISO3": "USA", "freeformAddress": "2890 Gateway Oaks Drive, Sacramento, CA 95833", "localName": "Sacramento"}, "position": {"lat": 38.620633, "lon": -121.522881}, "viewport": {"topLeftPoint": {"lat": 38.62153, "lon": -121.52403}, "btmRightPoint": {"lat": 38.61973, "lon": -121.52173}}, "entryPoints": [{"type": "main", "position": {"lat": 38.6198, "lon": -121.52227}}]}, {"type": "POI", "id": "Kpxd413MjFXIytzU_nDU4Q", "score": 0.9347109199, "dist": 5416.511051, "info": "search:ta:840067000014213-US", "matchConfidence": {"score": 1}, "poi": {"name": "Witter Ranch Elementary School", "phone": "+1 916-567-5620", "categorySet": [{"id": 7372002}], "url": "natomas.k12.ca.us", "categories": ["school"], "classifications": [{"code": "SCHOOL", "names": [{"nameLocale": "en-US", "name": "school"}]}]}, "address": {"streetNumber": "3790", "streetName": "Poppy Hill Way", "municipality": "Sacramento", "neighbourhood": "Gateway West", "countrySecondarySubdivision": "Sacramento", "countrySubdivision": "CA", "countrySubdivisionName": "California", "countrySubdivisionCode": "CA", "postalCode": "95834", "extendedPostalCode": "95834-1030", "countryCode": "US", "country": "United States", "countryCodeISO3": "USA", "freeformAddress": "3790 Poppy Hill Way, Sacramento, CA 95834", "localName": "Sacramento"}, "position": {"lat": 38.637301, "lon": -121.532574}, "viewport": {"topLeftPoint": {"lat": 38.63835, "lon": -121.53392}, "btmRightPoint": {"lat": 38.63625, "lon": -121.53123}}, "entryPoints": [{"type": "main", "position": {"lat": 38.63631, "lon": -121.53213}}]}, {"type": "POI", "id": "eOMvzh-KD0F_9t263IanfA", "score": 0.9341199398, "dist": 7293.949094, "info": "search:ta:840069020248201-US", "matchConfidence": {"score": 1}, "poi": {"name": "Dale Carnegie Training", "phone": "+1 916-696-6737", "brands": [{"name": "Dale Carnegie Training"}], "categorySet": [{"id": 7372002}], "url": "www.dalecarnegie.com", "categories": ["school"], "classifications": [{"code": "SCHOOL", "names": [{"nameLocale": "en-US", "name": "school"}]}]}, "address": {"streetNumber": "2804", "streetName": "Gateway Oaks Drive", "municipality": "Sacramento", "neighbourhood": "Metro Center", "countrySecondarySubdivision": "Sacramento", "countrySubdivision": "CA", "countrySubdivisionName": "California", "countrySubdivisionCode": "CA", "postalCode": "95833", "extendedPostalCode": "95833-3508", "countryCode": "US", "country": "United States", "countryCodeISO3": "USA", "freeformAddress": "2804 Gateway Oaks Drive, Sacramento, CA 95833", "localName": "Sacramento"}, "position": {"lat": 38.619316, "lon": -121.517486}, "viewport": {"topLeftPoint": {"lat": 38.62022, "lon": -121.51864}, "btmRightPoint": {"lat": 38.61842, "lon": -121.51633}}, "entryPoints": [{"type": "main", "position": {"lat": 38.61919, "lon": -121.51815}}]}, {"type": "POI", "id": "9VO5vw7jjYGoNa9cR7tCMw", "score": 0.933688581, "dist": 5112.12541, "info": "search:ta:840069001924767-US", "matchConfidence": {"score": 1}, "poi": {"name": "California Interscholastic Federation", "phone": "+1 916-239-4477", "categorySet": [{"id": 7372002}], "url": "www.ca-usaw.org", "categories": ["school"], "classifications": [{"code": "SCHOOL", "names": [{"nameLocale": "en-US", "name": "school"}]}]}, "address": {"streetNumber": "4658", "streetName": "Duckhorn Drive", "municipality": "Sacramento", "neighbourhood": "Sundance Lake", "countrySecondarySubdivision": "Sacramento", "countrySubdivision": "CA", "countrySubdivisionName": "California", "countrySubdivisionCode": "CA", "postalCode": "95834", "extendedPostalCode": "95834-2591", "countryCode": "US", "country": "United States", "countryCodeISO3": "USA", "freeformAddress": "4658 Duckhorn Drive, Sacramento, CA 95834", "localName": "Sacramento"}, "position": {"lat": 38.654221, "lon": -121.53566}, "viewport": {"topLeftPoint": {"lat": 38.65512, "lon": -121.53681}, "btmRightPoint": {"lat": 38.65332, "lon": -121.53451}}, "entryPoints": [{"type": "main", "position": {"lat": 38.65431, "lon": -121.53565}}]}, {"type": "POI", "id": "rkx_LTlW1sstMjxQF5iE_g", "score": 0.9311910868, "dist": 6899.487932, "info": "search:ta:840067000009343-US", "matchConfidence": {"score": 1}, "poi": {"name": "Inderkum High School", "phone": "+1 916-567-5640", "categorySet": [{"id": 7372002}], "url": "www.natomasunified.org", "categories": ["school"], "classifications": [{"code": "SCHOOL", "names": [{"nameLocale": "en-US", "name": "school"}]}]}, "address": {"streetNumber": "2500", "streetName": "New Market Drive", "municipality": "Sacramento", "neighbourhood": "RP-Sports Complex", "countrySecondarySubdivision": "Sacramento", "countrySubdivision": "CA", "countrySubdivisionName": "California", "countrySubdivisionCode": "CA", "postalCode": "95835", "extendedPostalCode": "95835-2238", "countryCode": "US", "country": "United States", "countryCodeISO3": "USA", "freeformAddress": "2500 New Market Drive, Sacramento, CA 95835", "localName": "Sacramento"}, "position": {"lat": 38.658076, "lon": -121.515627}, "viewport": {"topLeftPoint": {"lat": 38.65963, "lon": -121.51762}, "btmRightPoint": {"lat": 38.65652, "lon": -121.51364}}, "entryPoints": [{"type": "main", "position": {"lat": 38.65919, "lon": -121.51424}}]}, {"type": "POI", "id": "mT1n5-M65kObWadgV5f_iA", "score": 0.929179132, "dist": 6602.077239, "info": "search:ta:840067000471284-US", "matchConfidence": {"score": 1}, "poi": {"name": "Two Rivers Elementary School", "phone": "+1 916-567-5520", "categorySet": [{"id": 7372002}], "url": "www.natomasunified.org", "categories": ["school"], "classifications": [{"code": "SCHOOL", "names": [{"nameLocale": "en-US", "name": "school"}]}]}, "address": {"streetNumber": "3201", "streetName": "West River Drive", "municipality": "Sacramento", "neighbourhood": "Willowcreek", "countrySecondarySubdivision": "Sacramento", "countrySubdivision": "CA", "countrySubdivisionName": "California", "countrySubdivisionCode": "CA", "postalCode": "95833", "extendedPostalCode": "95833-3768", "countryCode": "US", "country": "United States", "countryCodeISO3": "USA", "freeformAddress": "3201 West River Drive, Sacramento, CA 95833", "localName": "Sacramento"}, "position": {"lat": 38.610583, "lon": -121.533495}, "viewport": {"topLeftPoint": {"lat": 38.61158, "lon": -121.53477}, "btmRightPoint": {"lat": 38.60959, "lon": -121.53222}}, "entryPoints": [{"type": "main", "position": {"lat": 38.61029, "lon": -121.53228}}]}, {"type": "POI", "id": "Cbaz8i1JPGVFNtESxmatFA", "score": 0.929179132, "dist": 7418.347765, "info": "search:ta:840069015734361-US", "matchConfidence": {"score": 1}, "poi": {"name": "Washington Unified School District", "phone": "+1 916-375-7644", "categorySet": [{"id": 7372002}], "url": "www.wusd.k12.ca.us", "categories": ["school"], "classifications": [{"code": "SCHOOL", "names": [{"nameLocale": "en-US", "name": "school"}]}]}, "address": {"streetNumber": "1290", "streetName": "Carrie Street", "municipality": "West Sacramento", "neighbourhood": "Broderick-Bryte", "countrySecondarySubdivision": "Yolo", "countrySubdivision": "CA", "countrySubdivisionName": "California", "countrySubdivisionCode": "CA", "postalCode": "95605", "extendedPostalCode": "95605-2007", "countryCode": "US", "country": "United States", "countryCodeISO3": "USA", "freeformAddress": "1290 Carrie Street, West Sacramento, CA 95605", "localName": "West Sacramento"}, "position": {"lat": 38.5987, "lon": -121.534537}, "viewport": {"topLeftPoint": {"lat": 38.5996, "lon": -121.53569}, "btmRightPoint": {"lat": 38.5978, "lon": -121.53339}}, "entryPoints": [{"type": "main", "position": {"lat": 38.59851, "lon": -121.53468}}]}, {"type": "POI", "id": "Y8QAbRpvQAKKde9owH1CyQ", "score": 0.929179132, "dist": 7433.761056, "info": "search:ta:840069005329089-US", "matchConfidence": {"score": 1}, "poi": {"name": "Washington Children's Center", "phone": "+1 916-375-7642", "categorySet": [{"id": 7372002}], "url": "wusd.k12.ca.us", "categories": ["school"], "classifications": [{"code": "SCHOOL", "names": [{"nameLocale": "en-US", "name": "school"}]}]}, "address": {"streetNumber": "1290", "streetName": "Carrie Street", "municipality": "West Sacramento", "neighbourhood": "Broderick-Bryte", "countrySecondarySubdivision": "Yolo", "countrySubdivision": "CA", "countrySubdivisionName": "California", "countrySubdivisionCode": "CA", "postalCode": "95605", "extendedPostalCode": "95605-2047", "countryCode": "US", "country": "United States", "countryCodeISO3": "USA", "freeformAddress": "1290 Carrie Street, West Sacramento, CA 95605", "localName": "West Sacramento"}, "position": {"lat": 38.598422, "lon": -121.534652}, "viewport": {"topLeftPoint": {"lat": 38.59932, "lon": -121.5358}, "btmRightPoint": {"lat": 38.59752, "lon": -121.5335}}, "entryPoints": [{"type": "main", "position": {"lat": 38.59851, "lon": -121.53468}}]}, {"type": "POI", "id": "doeOHmn3Q_UV9r-Ch-ADaA", "score": 0.9125341177, "dist": 5845.787799, "info": "search:ta:840067000360653-US", "matchConfidence": {"score": 1}, "poi": {"name": "Natomas Charter School", "phone": "+1 916-419-8563", "categorySet": [{"id": 7372002}], "categories": ["school"], "classifications": [{"code": "SCHOOL", "names": [{"nameLocale": "en-US", "name": "school"}]}]}, "address": {"streetNumber": "2920", "streetName": "Advantage Way", "municipality": "Sacramento", "neighbourhood": "RP-Sports Complex", "countrySecondarySubdivision": "Sacramento", "countrySubdivision": "CA", "countrySubdivisionName": "California", "countrySubdivisionCode": "CA", "postalCode": "95834", "extendedPostalCode": "95834-9666", "countryCode": "US", "country": "United States", "countryCodeISO3": "USA", "freeformAddress": "2920 Advantage Way, Sacramento, CA 95834", "localName": "Sacramento"}, "position": {"lat": 38.653742, "lon": -121.527028}, "viewport": {"topLeftPoint": {"lat": 38.65464, "lon": -121.52818}, "btmRightPoint": {"lat": 38.65284, "lon": -121.52588}}, "entryPoints": [{"type": "minor", "position": {"lat": 38.65376, "lon": -121.52722}}, {"type": "main", "position": {"lat": 38.65436, "lon": -121.52697}}]}, {"type": "POI", "id": "BzgqN-VCXT7EpVYzZAmNjQ", "score": 0.9110034704, "dist": 5996.761506, "info": "search:ta:840067000009617-US", "matchConfidence": {"score": 1}, "poi": {"name": "Natomas Pacific Pathways Prep Elementary", "categorySet": [{"id": 7372002}], "categories": ["school"], "classifications": [{"code": "SCHOOL", "names": [{"nameLocale": "en-US", "name": "school"}]}]}, "address": {"streetNumber": "4400", "streetName": "East Commerce Way", "municipality": "Sacramento", "neighbourhood": "RP-Sports Complex", "countrySecondarySubdivision": "Sacramento", "countrySubdivision": "CA", "countrySubdivisionName": "California", "countrySubdivisionCode": "CA", "postalCode": "95834", "extendedPostalCode": "95834-9705", "countryCode": "US", "country": "United States", "countryCodeISO3": "USA", "freeformAddress": "4400 East Commerce Way, Sacramento, CA 95834", "localName": "Sacramento"}, "position": {"lat": 38.65156, "lon": -121.524969}, "viewport": {"topLeftPoint": {"lat": 38.65246, "lon": -121.52612}, "btmRightPoint": {"lat": 38.65066, "lon": -121.52382}}, "entryPoints": [{"type": "minor", "position": {"lat": 38.65164, "lon": -121.52469}}, {"type": "main", "position": {"lat": 38.65162, "lon": -121.52604}}]}, {"type": "POI", "id": "9Dj4cyaZvs9IxIOGFNoZEg", "score": 0.9053689837, "dist": 7381.381663, "info": "search:ta:840069005262828-US", "matchConfidence": {"score": 1}, "poi": {"name": "Sunshine Academy", "phone": "+1 209-595-1875", "categorySet": [{"id": 7372002}], "categories": ["school"], "classifications": [{"code": "SCHOOL", "names": [{"nameLocale": "en-US", "name": "school"}]}]}, "address": {"streetNumber": "2207", "streetName": "Drusy Avenue", "municipality": "Sacramento", "neighbourhood": "Natomas Crossing", "countrySecondarySubdivision": "Sacramento", "countrySubdivision": "CA", "countrySubdivisionName": "California", "countrySubdivisionCode": "CA", "postalCode": "95834", "extendedPostalCode": "95834-3843", "countryCode": "US", "country": "United States", "countryCodeISO3": "USA", "freeformAddress": "2207 Drusy Avenue, Sacramento, CA 95834", "localName": "Sacramento"}, "position": {"lat": 38.634618, "lon": -121.510198}, "viewport": {"topLeftPoint": {"lat": 38.63552, "lon": -121.51135}, "btmRightPoint": {"lat": 38.63372, "lon": -121.50905}}, "entryPoints": [{"type": "main", "position": {"lat": 38.63436, "lon": -121.51018}}]}, {"type": "POI", "id": "O-e0vHFuqj5-pOphEoNkkg", "score": 0.884359777, "dist": 7173.742741, "info": "search:ta:840069001241886-US", "matchConfidence": {"score": 1}, "poi": {"name": "California College Career Technical Education Center", "phone": "+1 916-371-2833", "categorySet": [{"id": 7372002}], "categories": ["school"], "classifications": [{"code": "SCHOOL", "names": [{"nameLocale": "en-US", "name": "school"}]}]}, "address": {"streetNumber": "890", "streetName": "Embarcadero Drive", "municipality": "West Sacramento", "neighbourhood": "Riverside", "countrySecondarySubdivision": "Yolo", "countrySubdivision": "CA", "countrySubdivisionName": "California", "countrySubdivisionCode": "CA", "postalCode": "95605", "extendedPostalCode": "95605-1503", "countryCode": "US", "country": "United States", "countryCodeISO3": "USA", "freeformAddress": "890 Embarcadero Drive, West Sacramento, CA 95605", "localName": "West Sacramento"}, "position": {"lat": 38.586604, "lon": -121.563947}, "viewport": {"topLeftPoint": {"lat": 38.5875, "lon": -121.5651}, "btmRightPoint": {"lat": 38.5857, "lon": -121.5628}}, "entryPoints": [{"type": "main", "position": {"lat": 38.58651, "lon": -121.56353}}]}, {"type": "POI", "id": "KkavQA5eS8eqeGIrv-EL_g", "score": 0.884359777, "dist": 7173.742741, "info": "search:ta:840061002751543-US", "matchConfidence": {"score": 1}, "poi": {"name": "Ccctec Charter School", "phone": "+1 916-596-6930", "categorySet": [{"id": 7372002}], "categories": ["school"], "classifications": [{"code": "SCHOOL", "names": [{"nameLocale": "en-US", "name": "school"}]}]}, "address": {"streetNumber": "890", "streetName": "Embarcadero Drive", "municipality": "West Sacramento", "neighbourhood": "Riverside", "countrySecondarySubdivision": "Yolo", "countrySubdivision": "CA", "countrySubdivisionName": "California", "countrySubdivisionCode": "CA", "postalCode": "95605", "extendedPostalCode": "95605-1503", "countryCode": "US", "country": "United States", "countryCodeISO3": "USA", "freeformAddress": "890 Embarcadero Drive, West Sacramento, CA 95605", "localName": "West Sacramento"}, "position": {"lat": 38.586604, "lon": -121.563947}, "viewport": {"topLeftPoint": {"lat": 38.5875, "lon": -121.5651}, "btmRightPoint": {"lat": 38.5857, "lon": -121.5628}}, "entryPoints": [{"type": "main", "position": {"lat": 38.58651, "lon": -121.56353}}]}, {"type": "POI", "id": "GDLFMOhuHw6ywNWVAkjZ9g", "score": 0.8823996186, "dist": 7430.015159, "info": "search:ta:840067000079412-US", "matchConfidence": {"score": 1}, "poi": {"name": "Washington Middle College High School", "categorySet": [{"id": 7372002}], "categories": ["school"], "classifications": [{"code": "SCHOOL", "names": [{"nameLocale": "en-US", "name": "school"}]}]}, "address": {"streetNumber": "637", "streetName": "Todhunter Ave", "municipality": "West Sacramento", "neighbourhood": "Broderick-Bryte", "countrySecondarySubdivision": "Yolo", "countrySubdivision": "CA", "countrySubdivisionName": "California", "countrySubdivisionCode": "CA", "postalCode": "95605", "extendedPostalCode": "95605-2047", "countryCode": "US", "country": "United States", "countryCodeISO3": "USA", "freeformAddress": "637 Todhunter Ave, West Sacramento, CA 95605", "localName": "West Sacramento"}, "position": {"lat": 38.598401, "lon": -121.534742}, "viewport": {"topLeftPoint": {"lat": 38.5993, "lon": -121.53589}, "btmRightPoint": {"lat": 38.5975, "lon": -121.53359}}, "entryPoints": [{"type": "main", "position": {"lat": 38.59849, "lon": -121.53477}}]}]}