{"summary": {"query": "school", "queryType": "NON_NEAR", "queryTime": 57, "numResults": 3, "offset": 0, "totalResults": 100, "fuzzyLevel": 1, "geoBias": {"lat": 38.64677, "lon": -121.53375000000001}}, "results": [{"type": "POI", "id": "9VO5vw7jjYGoNa9cR7tCMw", "score": 0.9701837897, "dist": 844.929426, "info": "search:ta:840069001924767-US", "matchConfidence": {"score": 1}, "poi": {"name": "California Interscholastic Federation", "phone": "+1 916-239-4477", "categorySet": [{"id": 7372002}], "url": "www.ca-usaw.org", "categories": ["school"], "classifications": [{"code": "SCHOOL", "names": [{"nameLocale": "en-US", "name": "school"}]}]}, "address": {"streetNumber": "4658", "streetName": "Duckhorn Drive", "municipality": "Sacramento", "neighbourhood": "Sundance Lake", "countrySecondarySubdivision": "Sacramento", "countrySubdivision": "CA", "countrySubdivisionName": "California", "countrySubdivisionCode": "CA", "postalCode": "95834", "extendedPostalCode": "95834-2591", "countryCode": "US", "country": "United States", "countryCodeISO3": "USA", "freeformAddress": "4658 Duckhorn Drive, Sacramento, CA 95834", "localName": "Sacramento"}, "position": {"lat": 38.654221, "lon": -121.53566}, "viewport": {"topLeftPoint": {"lat": 38.65512, "lon": -121.53681}, "btmRightPoint": {"lat": 38.65332, "lon": -121.53451}}, "entryPoints": [{"type": "main", "position": {"lat": 38.65431, "lon": -121.53565}}]}, {"type": "POI", "id": "doeOHmn3Q_UV9r-Ch-ADaA", "score": 0.9544780254, "dist": 970.440687, "info": "search:ta:840067000360653-US", "matchConfidence": {"score": 1}, "poi": {"name": "Natomas Charter School", "phone": "+1 916-419-8563", "categorySet": [{"id": 7372002}], "categories": ["school"], "classifications": [{"code": "SCHOOL", "names": [{"nameLocale": "en-US", "name": "school"}]}]}, "address": {"streetNumber": "2920", "streetName": "Advantage Way", "municipality": "Sacramento", "neighbourhood": "RP-Sports Complex", "countrySecondarySubdivision": "Sacramento", "countrySubdivision": "CA", "countrySubdivisionName": "California", "countrySubdivisionCode": "CA", "postalCode": "95834", "extendedPostalCode": "95834-9666", "countryCode": "US", "country": "United States", "countryCodeISO3": "USA", "freeformAddress": "2920 Advantage Way, Sacramento, CA 95834", "localName": "Sacramento"}, "position": {"lat": 38.653742, "lon": -121.527028}, "viewport": {"topLeftPoint": {"lat": 38.65464, "lon": -121.52818}, "btmRightPoint": {"lat": 38.65284, "lon": -121.52588}}, "entryPoints": [{"type": "minor", "position": {"lat": 38.65376, "lon": -121.52722}}, {"type": "main", "position": {"lat": 38.65436, "lon": -121.52697}}]}, {"type": "POI", "id": "BzgqN-VCXT7EpVYzZAmNjQ", "score": 0.9536440969, "dist": 930.131087, "info": "search:ta:840067000009617-US", "matchConfidence": {"score": 1}, "poi": {"name": "Natomas Pacific Pathways Prep Elementary", "categorySet": [{"id": 7372002}], "categories": ["school"], "classifications": [{"code": "SCHOOL", "names": [{"nameLocale": "en-US", "name": "school"}]}]}, "address": {"streetNumber": "4400", "streetName": "East Commerce Way", "municipality": "Sacramento", "neighbourhood": "RP-Sports Complex", "countrySecondarySubdivision": "Sacramento", "countrySubdivision": "CA", "countrySubdivisionName": "California", "countrySubdivisionCode": "CA", "postalCode": "95834", "extendedPostalCode": "95834-9705", "countryCode": "US", "country": "United States", "countryCodeISO3": "USA", "freeformAddress": "4400 East Commerce Way, Sacramento, CA 95834", "localName": "Sacramento"}, "position": {"lat": 38.65156, "lon": -121.524969}, "viewport": {"topLeftPoint": {"lat": 38.65246, "lon": -121.52612}, "btmRightPoint": {"lat": 38.65066, "lon": -121.52382}}, "entryPoints": [{"type": "minor", "position": {"lat": 38.65164, "lon": -121.52469}}, {"type": "main", "position": {"lat": 38.65162, "lon": -121.52604}}]}]}