{"summary": {"query": "school", "queryType": "NON_NEAR", "queryTime": 58, "numResults": 10, "offset": 0, "totalResults": 100, "fuzzyLevel": 1, "geoBias": {"lat": 38.661770000000004, "lon": -121.56875}}, "results": [{"type": "POI", "id": "PljkJQaIng0077Jeidu3Ng", "score": 0.9675770402, "dist": 2061.884989, "info": "search:ta:840067000008868-US", "matchConfidence": {"score": 1}, "poi": {"name": "Natomas Pacific Pathways Prep School-Middle", "phone": "+1 916-567-5740", "categorySet": [{"id": 7372002}], "url": "www.natomasunified.org", "categories": ["school"], "classifications": [{"code": "SCHOOL", "names": [{"nameLocale": "en-US", "name": "school"}]}]}, "address": {"streetNumber": "3700", "streetName": "Del Paso Road", "municipality": "Sacramento", "neighbourhood": "Sundance Lake", "countrySecondarySubdivision": "Sacramento", "countrySubdivision": "CA", "countrySubdivisionName": "California", "countrySubdivisionCode": "CA", "postalCode": "95834", "extendedPostalCode": "95834-9606", "countryCode": "US", "country": "United States", "countryCodeISO3": "USA", "freeformAddress": "3700 Del Paso Road, Sacramento, CA 95834", "localName": "Sacramento"}, "position": {"lat": 38.654607, "lon": -121.546847}, "viewport": {"topLeftPoint": {"lat": 38.65563, "lon": -121.54815}, "btmRightPoint": {"lat": 38.65359, "lon": -121.54554}}, "entryPoints": [{"type": "main", "position": {"lat": 38.65561, "lon": -121.5466}}]}, {"type": "POI", "id": "phr_S2GF7XzWmLN-mr34-Q", "score": 0.9604035616, "dist": 3172.768467, "info": "search:ta:840067000013649-US", "matchConfidence": {"score": 1}, "poi": {"name": "Natomas Middle School", "phone": "+1 916-567-5540", "categorySet": [{"id": 7372002}], "url": "www.natomasunified.org", "categories": ["school"], "classifications": [{"code": "SCHOOL", "names": [{"nameLocale": "en-US", "name": "school"}]}]}, "address": {"streetNumber": "3200", "streetName": "North Park Drive", "municipality": "Sacramento", "neighbourhood": "Creekside", "countrySecondarySubdivision": "Sacramento", "countrySubdivision": "CA", "countrySubdivisionName": "California", "countrySubdivisionCode": "CA", "postalCode": "95835", "countryCode": "US", "country": "United States", "countryCodeISO3": "USA", "freeformAddress": "3200 North Park Drive, Sacramento, CA 95835", "localName": "Sacramento"}, "position": {"lat": 38.666473, "lon": -121.532707}, "viewport": {"topLeftPoint": {"lat": 38.66737, "lon": -121.53386}, "btmRightPoint": {"lat": 38.66557, "lon": -121.53156}}, "entryPoints": [{"type": "main", "position": {"lat": 38.66564, "lon": -121.53186}}]}, {"type": "POI", "id": "UfK2ttJ7zAbekI_5pdIiCw", "score": 0.9592083693, "dist": 3172.768467, "info": "search:ta:840067000014259-US", "matchConfidence": {"score": 1}, "poi": {"name": "H Allen Hight Elementary School", "phone": "+1 916-567-5700", "categorySet": [{"id": 7372002}], "url": "www.natomasunified.org", "categories": ["school"], "classifications": [{"code": "SCHOOL", "names": [{"nameLocale": "en-US", "name": "school"}]}]}, "address": {"streetNumber": "3200", "streetName": "North Park Drive", "municipality": "Sacramento", "neighbourhood": "Creekside", "countrySecondarySubdivision": "Sacramento", "countrySubdivision": "CA", "countrySubdivisionName": "California", "countrySubdivisionCode": "CA", "postalCode": "95835", "countryCode": "US", "country": "United States", "countryCodeISO3": "USA", "freeformAddress": "3200 North Park Drive, Sacramento, CA 95835", "localName": "Sacramento"}, "position": {"lat": 38.666473, "lon": -121.532707}, "viewport": {"topLeftPoint": {"lat": 38.66737, "lon": -121.53386}, "btmRightPoint": {"lat": 38.66557, "lon": -121.53156}}, "entryPoints": [{"type": "main", "position": {"lat": 38.66564, "lon": -121.53186}}]}, {"type": "POI", "id": "9VO5vw7jjYGoNa9cR7tCMw", "score": 0.957813561, "dist": 2993.354901, "info": "search:ta:840069001924767-US", "matchConfidence": {"score": 1}, "poi": {"name": "California Interscholastic Federation", "phone": "+1 916-239-4477", "categorySet": [{"id": 7372002}], "url": "www.ca-usaw.org", "categories": ["school"], "classifications": [{"code": "SCHOOL", "names": [{"nameLocale": "en-US", "name": "school"}]}]}, "address": {"streetNumber": "4658", "streetName": "Duckhorn Drive", "municipality": "Sacramento", "neighbourhood": "Sundance Lake", "countrySecondarySubdivision": "Sacramento", "countrySubdivision": "CA", "countrySubdivisionName": "California", "countrySubdivisionCode": "CA", "postalCode": "95834", "extendedPostalCode": "95834-2591", "countryCode": "US", "country": "United States", "countryCodeISO3": "USA", "freeformAddress": "4658 Duckhorn Drive, Sacramento, CA 95834", "localName": "Sacramento"}, "position": {"lat": 38.654221, "lon": -121.53566}, "viewport": {"topLeftPoint": {"lat": 38.65512, "lon": -121.53681}, "btmRightPoint": {"lat": 38.65332, "lon": -121.53451}}, "entryPoints": [{"type": "main", "position": {"lat": 38.65431, "lon": -121.53565}}]}, {"type": "POI", "id": "Kpxd413MjFXIytzU_nDU4Q", "score": 0.9489992857, "dist": 4156.03891, "info": "search:ta:840067000014213-US", "matchConfidence": {"score": 1}, "poi": {"name": "Witter Ranch Elementary School", "phone": "+1 916-567-5620", "categorySet": [{"id": 7372002}], "url": "natomas.k12.ca.us", "categories": ["school"], "classifications": [{"code": "SCHOOL", "names": [{"nameLocale": "en-US", "name": "school"}]}]}, "address": {"streetNumber": "3790", "streetName": "Poppy Hill Way", "municipality": "Sacramento", "neighbourhood": "Gateway West", "countrySecondarySubdivision": "Sacramento", "countrySubdivision": "CA", "countrySubdivisionName": "California", "countrySubdivisionCode": "CA", "postalCode": "95834", "extendedPostalCode": "95834-1030", "countryCode": "US", "country": "United States", "countryCodeISO3": "USA", "freeformAddress": "3790 Poppy Hill Way, Sacramento, CA 95834", "localName": "Sacramento"}, "position": {"lat": 38.637301, "lon": -121.532574}, "viewport": {"topLeftPoint": {"lat": 38.63835, "lon": -121.53392}, "btmRightPoint": {"lat": 38.63625, "lon": -121.53123}}, "entryPoints": [{"type": "main", "position": {"lat": 38.63631, "lon": -121.53213}}]}, {"type": "POI", "id": "rkx_LTlW1sstMjxQF5iE_g", "score": 0.9484013915, "dist": 4630.812243, "info": "search:ta:840067000009343-US", "matchConfidence": {"score": 1}, "poi": {"name": "Inderkum High School", "phone": "+1 916-567-5640", "categorySet": [{"id": 7372002}], "url": "www.natomasunified.org", "categories": ["school"], "classifications": [{"code": "SCHOOL", "names": [{"nameLocale": "en-US", "name": "school"}]}]}, "address": {"streetNumber": "2500", "streetName": "New Market Drive", "municipality": "Sacramento", "neighbourhood": "RP-Sports Complex", "countrySecondarySubdivision": "Sacramento", "countrySubdivision": "CA", "countrySubdivisionName": "California", "countrySubdivisionCode": "CA", "postalCode": "95835", "extendedPostalCode": "95835-2238", "countryCode": "US", "country": "United States", "countryCodeISO3": "USA", "freeformAddress": "2500 New Market Drive, Sacramento, CA 95835", "localName": "Sacramento"}, "position": {"lat": 38.658076, "lon": -121.515627}, "viewport": {"topLeftPoint": {"lat": 38.65963, "lon": -121.51762}, "btmRightPoint": {"lat": 38.65652, "lon": -121.51364}}, "entryPoints": [{"type": "main", "position": {"lat": 38.65919, "lon": -121.51424}}]}, {"type": "POI", "id": "OHfxXcGVPULXFY6WycSZjQ", "score": 0.9475201964, "dist": 5022.90388, "info": "search:ta:840067000008422-US", "matchConfidence": {"score": 1}, "poi": {"name": "Heron K-8 School", "phone": "+1 916-567-5680", "categorySet": [{"id": 7372002}], "url": "natomas.k12.ca.us", "categories": ["school"], "classifications": [{"code": "SCHOOL", "names": [{"nameLocale": "en-US", "name": "school"}]}]}, "address": {"streetNumber": "5151", "streetName": "Banfield Drive", "municipality": "Sacramento", "neighbourhood": "Natomas Park", "countrySecondarySubdivision": "Sacramento", "countrySubdivision": "CA", "countrySubdivisionName": "California", "countrySubdivisionCode": "CA", "postalCode": "95835", "extendedPostalCode": "95835-1421", "countryCode": "US", "country": "United States", "countryCodeISO3": "USA", "freeformAddress": "5151 Banfield Drive, Sacramento, CA 95835", "localName": "Sacramento"}, "position": {"lat": 38.667728, "lon": -121.511403}, "viewport": {"topLeftPoint": {"lat": 38.66916, "lon": -121.51324}, "btmRightPoint": {"lat": 38.66629, "lon": -121.50957}}, "entryPoints": [{"type": "main", "position": {"lat": 38.66906, "lon": -121.51072}}]}, {"type": "POI", "id": "mf66S5akv4jgPSfQ3LteAg", "score": 0.936576426, "dist": 5335.520359, "info": "search:ta:840067000471286-US", "matchConfidence": {"score": 1}, "poi": {"name": "Maryhill School", "phone": "+1 916-575-9603", "categorySet": [{"id": 7372002}], "url": "www.merryhillschool.com/preschools/sacramento/natomas", "categories": ["school"], "classifications": [{"code": "SCHOOL", "names": [{"nameLocale": "en-US", "name": "school"}]}]}, "address": {"streetNumber": "2855", "streetName": "Karitsa Avenue", "municipality": "Sacramento", "neighbourhood": "Gateway West", "countrySecondarySubdivision": "Sacramento", "countrySubdivision": "CA", "countrySubdivisionName": "California", "countrySubdivisionCode": "CA", "postalCode": "95833", "extendedPostalCode": "95833-4443", "countryCode": "US", "country": "United States", "countryCodeISO3": "USA", "freeformAddress": "2855 Karitsa Avenue, Sacramento, CA 95833", "localName": "Sacramento"}, "position": {"lat": 38.627192, "lon": -121.526156}, "viewport": {"topLeftPoint": {"lat": 38.62809, "lon": -121.52731}, "btmRightPoint": {"lat": 38.62629, "lon": -121.525}}, "entryPoints": [{"type": "main", "position": {"lat": 38.62664, "lon": -121.52617}}]}, {"type": "POI", "id": "doeOHmn3Q_UV9r-Ch-ADaA", "score": 0.9317775369, "dist": 3731.127162, "info": "search:ta:840067000360653-US", "matchConfidence": {"score": 1}, "poi": {"name": "Natomas Charter School", "phone": "+1 916-419-8563", "categorySet": [{"id": 7372002}], "categories": ["school"], "classifications": [{"code": "SCHOOL", "names": [{"nameLocale": "en-US", "name": "school"}]}]}, "address": {"streetNumber": "2920", "streetName": "Advantage Way", "municipality": "Sacramento", "neighbourhood": "RP-Sports Complex", "countrySecondarySubdivision": "Sacramento", "countrySubdivision": "CA", "countrySubdivisionName": "California", "countrySubdivisionCode": "CA", "postalCode": "95834", "extendedPostalCode": "95834-9666", "countryCode": "US", "country": "United States", "countryCodeISO3": "USA", "freeformAddress": "2920 Advantage Way, Sacramento, CA 95834", "localName": "Sacramento"}, "position": {"lat": 38.653742, "lon": -121.527028}, "viewport": {"topLeftPoint": {"lat": 38.65464, "lon": -121.52818}, "btmRightPoint": {"lat": 38.65284, "lon": -121.52588}}, "entryPoints": [{"type": "minor", "position": {"lat": 38.65376, "lon": -121.52722}}, {"type": "main", "position": {"lat": 38.65436, "lon": -121.52697}}]}, {"type": "POI", "id": "BzgqN-VCXT7EpVYzZAmNjQ", "score": 0.9305580258, "dist": 3967.540312, "info": "search:ta:840067000009617-US", "matchConfidence": {"score": 1}, "poi": {"name": "Natomas Pacific Pathways Prep Elementary", "categorySet": [{"id": 7372002}], "categories": ["school"], "classifications": [{"code": "SCHOOL", "names": [{"nameLocale": "en-US", "name": "school"}]}]}, "address": {"streetNumber": "4400", "streetName": "East Commerce Way", "municipality": "Sacramento", "neighbourhood": "RP-Sports Complex", "countrySecondarySubdivision": "Sacramento", "countrySubdivision": "CA", "countrySubdivisionName": "California", "countrySubdivisionCode": "CA", "postalCode": "95834", "extendedPostalCode": "95834-9705", "countryCode": "US", "country": "United States", "countryCodeISO3": "USA", "freeformAddress": "4400 East Commerce Way, Sacramento, CA 95834", "localName": "Sacramento"}, "position": {"lat": 38.65156, "lon": -121.524969}, "viewport": {"topLeftPoint": {"lat": 38.65246, "lon": -121.52612}, "btmRightPoint": {"lat": 38.65066, "lon": -121.52382}}, "entryPoints": [{"type": "minor", "position": {"lat": 38.65164, "lon": -121.52469}}, {"type": "main", "position": {"lat": 38.65162, "lon": -121.52604}}]}]}